LON,LAT,type,name,email,street,city,state,zip,www,facebook,fbIcon,instagram,instaIcon,markets
-87.9007986,37.0039265,Cut Flower Grower,Meadowview Flowers,meadowviewflowers@gmail.com,2245 Kentucky 1272,Princeton,KY,42445,https://www.meadowviewflowers.com/,https://www.facebook.com/meadowviewflowers,./icons/fb-icon.png,https://www.instagram.com/meadowviewflowers/,./icons/instagram-icon.png,"Wholesale to florists, Subscriptions, Mobile Flower Truck,  Members Market at Farm, Farm To Vase Events"
-87.6809005,36.8148033,Cut Flower Grower,Free Range Flowers at Martin's Farm,freerangeflowers@yahoo.com,593 E. Lake Rd,Gracey,KY,42232,https://www.freerangeflowers.net/,https://www.facebook.com/freerangeflowersatmartinfarm/,./icons/fb-icon.png,https://www.instagram.com/freerangeflowers/,./icons/instagram-icon.png,"Wedding Design, CSA bouquet subscription delivery service to home & office"
-87.4411788,36.9127485,Cut Flower Grower,Story and Bloom,elizabeth.riggle@storyandbloom.com,5180 Greenville Road,Hopkinsville,KY,42240,https://www.storyandbloom.com/home,https://www.facebook.com/story.and.bloom/,./icons/fb-icon.png,https://www.instagram.com/story.and.bloom/,./icons/instagram-icon.png,"Farmer's Market, Wholesale to Florists, Farm Stands, Events, Workshops, U-Pick"
-87.269013,36.722974,Cut Flower Grower,The Flower Patch,jknope49@yahoo.com,3147 Cemetery Rd,Trenton,KY,42286,,https://www.facebook.com/TheFlowerPatchTrenton/,./icons/fb-icon.png,https://www.instagram.com/theflowerpatchtrenton/,./icons/instagram-icon.png,"Farmer's Market, Wholesale to Florists, Wedding Design, CSA"
-87.17854,37.20115,Cut Flower Grower,Blossom Hill Flower Farm ,ckferguson9@gmail.com,337 Outer York St.,Greenville,KY,42345,,https://www.facebook.com/blossomhillflowerfarm/,./icons/fb-icon.png,https://www.instagram.com/Blossomhillflowerfarm/,./icons/instagram-icon.png,"Consign though local hospital, boutiques, and gift stores"
-86.887271,36.844754,Cut Flower Grower,Old Roots Farm,oldrootsfarm585@gmail.com,585 Marshall Rd,Russellville,KY,42276,https://www.oldrootsfarm.com/,https://www.facebook.com/oldrootsfarm,./icons/fb-icon.png,https://www.instagram.com/old_roots_farm/,./icons/instagram-icon.png,"On-farm market, Farm Stands, Wholesale to florists, Local retail sites"
-86.87779,37.403048,Cut Flower Grower,Red Barn Blooms,redbarnblooms.lp@gmail.com,3679 State Rt. 269,Beaver Dam,KY,42320,,https://www.facebook.com/redbarnblooms.lp,./icons/fb-icon.png,https://www.instagram.com/red.barn.blooms/,./icons/instagram-icon.png,"Farmer's Market, Local Boutique"
-86.813939,36.856456,Cut Flower Grower,Steenbergen Sunflower Farm,steenbergenfarm42276@gmail.com,4013 Stevenson Mill Rd,Russellville ,KY,42276,https://www.steenbergenfarm.com/,https://www.facebook.com/steenbergensunflowers/,./icons/fb-icon.png,https://www.instagram.com/steenbergenfarm,,"You Pick, Flower Wagon"
-86.6835998,37.2256023,Cut Flower Grower,Freida T's Flowers,FreidaTsFlowers@yahoo.com,410 Hunt Lane,Morgantown,KY,42261,https://www.freidatsflowers,https://www.facebook.com/FreidaTsFlowers/,./icons/fb-icon.png,https://www.instagram.com/freidatsflowers/,./icons/instagram-icon.png,"Wholesale to florists, Subscriptions, Mobile Flower Truck,  Members Market at Farm, Farm To Vase Events"
-86.5863097,36.9387554,Cut Flower Grower,Starry Fields Farm,starryfieldsfarmky@gmail.com,2750 Browning Rd.,Rockfield,KY,42274,https://www.starryfieldsflowers.com/,https://www.facebook.com/starryfieldsfarm/,./icons/fb-icon.png,https://www.instagram.com/jessica_starryfieldsfarm/,./icons/instagram-icon.png,"Farmer's Market, Wholesale to florists, Local Shops"
-86.4235786,36.995634,Cut Flower Grower,Davida's Flowers,MAJESTICGREENSFARM@GMAIL.COM,3443 Glasgow Rd,Oakland,KY,42159,https://www.majesticgreensfarm.com/davidas-flowers,https://www.facebook.com/MajesticGreensFarm/,./icons/fb-icon.png,https://www.instagram.com/majesticgreensfarm/,./icons/instagram-icon.png,Subscription services
-86.3236721,36.9404611,Cut Flower Grower,Briar Rose Garden,Briarrosegarden@gmail.com,7791 Cemetery Rd,Bowling Green ,KY,42103,https://www.briarrosegarden.com,https://www.facebook.com/briarrosegarden/,./icons/fb-icon.png,https://www.instagram.com/briarrosegarden/,./icons/instagram-icon.png,"Wedding Design, Farm Stands, You Pick"
-86.1746693,36.9270695,Cut Flower Grower,River Bend Blooms,michelle.wheeler@riverbendblooms.com,1781 River Bend Rd.,Scottsville,KY,42164,https://www.riverbendblooms.com,https://www.facebook.com/riverbendblooms/,./icons/fb-icon.png,https://www.instagram.com/river.bend.blooms/,./icons/instagram-icon.png,"Wholesale to Florists, Subscriptions, Mobile Flower Truck,  Farm Stands"
-86.10710343,37.39529236,Cut Flower Grower,Roots + Blooms at Laurel Creek Farms,laurelcreekfarms.ky@gmail.com,"4815 Wax Road, Clarkson",Clarkson,KY,42726,http://www.laurelcreekfarmsky.com,https://www.facebook.com/rootsplusblooms,,https://www.instagram.com/laurelcreekfarms/?__coig_restricted=1,,"Farmer's Market, Wedding Design, Farm Stands, U-pick, Subscriptions"
-86.0937425,37.6775211,Cut Flower Grower,Color Me Mod Flower Farm,colormemod@gmail.com,836 Horn Rd,Cecilia,KY,42724,https://www.colormemodflowerfarm.com,https://www.facebook.com/Colormemod/,./icons/fb-icon.png,https://www.instagram.com/colormemodflowerfarm/,./icons/instagram-icon.png,"Farmer's Market, Wholesale to florists"
-86.018223,37.052916,Cut Flower Grower,Thornless Thistle,thornlessthistle@gmail.com,3101 Park City-Glasgow Rd,Glasgow,KY,42141,https://www.thornlessthistle.com/,https://www.facebook.com/ThornlessThistle/,./icons/fb-icon.png,,,"CSA, By the Stem"
-86.0135737,37.7096372,Cut Flower Grower,Fallen Maple Farm,fallenmaplefarm1@gmail.com,7909 Long Grove Road,Elizabethtown,KY,42701,www.fallenmaplefarmky.com,https://www.facebook.com/fallenmaplefarm,./icons/fb-icon.png,https://www.instagram.com/fallenmaplefarm/,./icons/instagram-icon.png,"Farmer's Market, Farm Store"
-85.829748,37.07508,Cut Flower Grower,Growing Boys Farm,sarahshirley@scrtc.com,5428 Coral Hill Rd.,Glasgow,KY,42141,,,,,,"Farmer's Market, Wholesale to florists, Wedding Design"
-85.7609942,38.2543111,Cut Flower Grower,Dancing Deer Botanicals,dancingdeerbotanical@gmail.com,2718 Cleveland Blvd.,Louisville,KY,40206,,https://www.facebook.com/dancingdeerbotanicals,./icons/fb-icon.png,https://Instagram.com/dancingdeerbotanicals,./icons/instagram-icon.png,"Wholesale to Florists, Farm Stand, Bouquet Subscriptions"
-85.7609942,38.245,Cut Flower Grower,FreshCutKY,freshcutky@gmail.com,,Louisville,KY,,http://www.freshcutky.co,https://www.facebook.com/freshcutky/,./icons/fb-icon.png,https://www.instagram.com/freshcutky/,./icons/instagram-icon.png,"Farmer's Market, Wedding Design, Farm Stands"
-85.7584557,38.2526647,Cut Flower Grower,Tappendorf Flower Co,abby@tappendorfflower.co,307 Arterburn Dr.,Louisville,KY,40222,http://www.tappendorfflower.co/,,,https://www.instagram.com/tappendorf_flower_co/,./icons/instagram-icon.png,Wholesale to Florists
-85.757829,38.254824,Cut Flower Grower,Black Rooster Farm,blackroosterfarm@yahoo.com,,Louisville,KY,,http://www.blackroosterfarm.com/,https://www.facebook.com/blackroosterfarmkentucky,./icons/fb-icon.png,https://www.instagram.com/blackroosterfarm/,./icons/instagram-icon.png,Farmer's Market
-85.522973,38.259152,Cut Flower Grower,Thistle and Finch Farm,thistleandfinchfarm@twc.com,12507 Old Henry Rd,Louisville,KY,40223,https://www.thistleandfinchfarm.com/,,,https://www.instagram.com/thistleandfinchfarm/,./icons/instagram-icon.png,"Flower stand/cart at Mozza Pi (Anchorage, KY)"
-85.518529,38.366495,Cut Flower Grower,Pure Pollen,purepollenflowers@gmail.com,8905 Hwy 329,Crestwood,KY,40014,http://purepollenflowers.com/,https://www.facebook.com/Pure-Pollen-Flowers-448649431879503/,./icons/fb-icon.png,https://www.instagram.com/purepollenflowers/,./icons/instagram-icon.png,"Farmer's Market, Wholesale to florists, Wedding Design, Farm Stands, edible blooms and herbs, floral delivery and holiday design"
-85.4507101,38.2308776,Cut Flower Grower,Good Buds Flower Farm,jenlbamsey@gmail.com,16230 Eastwood Cut Off Rd,Louisville,KY,40245,https://goodbudsflowerfarm.com/,https://www.facebook.com/goodbudsflowerfarm,./icons/fb-icon.png,https://www.instagram.com/goodbudsflowerfarm/,./icons/instagram-icon.png,"Farmer's market, Wholesale to florists, Farm stands, Bouquet Subscriptions, Custom Orders"
-85.361022,38.246655,Cut Flower Grower,Weathered Oak Farms,shalane@weatheredoakfarms.com,591 Noland Pike,Simpsonville,KY,40067,https://weatheredoakfarms.com,https://www.facebook.com/weatheredoakfarms/,./icons/fb-icon.png,https://www.instagram.com/weatheredoakfarms/,./icons/instagram-icon.png,"Farmer's Market, Wholesale to Florists, Wedding Design"
-85.3515142,38.2169802,Cut Flower Grower,Eden Roots Flower Farm,edenrootsflowerfarm@gmail.com,221 Old Veechdale Rd,Simpsonville,KY,40067,http://www.edenrootsflowerfarm.com,https://www.facebook.com/EdenRootsFlowerFarm/,./icons/fb-icon.png,https://www.instagram.com/edenroots_flowerfarm/,./icons/instagram-icon.png,"Wholesale to florists, Wedding Design, Order online for delivery "
-85.2536911,37.1689385,Cut Flower Grower,The Glass Parlor Kentucky Flower Farm and Events ,theglassparlor@gmail.com,262 Snake Creek Rd,Columbia,KY,42728,https://www.theglassparlor.com,https://www.facebook.com/theglassparlorky/,./icons/fb-icon.png,https://www.instagram.com/the_glass_parlor/,./icons/instagram-icon.png,"Wholesale to Florists, Wedding Design, Local Gift Shops "
-85.1856465,36.8700292,Cut Flower Grower,Campbell's Hollow Ranch,klcampbell180@gmail.com,180 Hollow Ranch Rd,Albany,KY,42062,https://www.campbellshollowranch.com/,https://www.facebook.com/Campbells-Hollow-Ranch-1409743482681427/,./icons/fb-icon.png,https://www.instagram.com/campbellshollowranch/,./icons/instagram-icon.png,Farmer's Market
-85.161001,38.030785,Cut Flower Grower,Der Bauernhof,ssand2@live.com,870 Van Buren Rd,Mt Eden,KY,40046,https://flowersderbauernhof.square.site,https://www.facebook.com/derbauernhofky/,./icons/fb-icon.png,https://www.instagram.com/susanbeverlysand/,./icons/instagram-icon.png,"Wedding Design, CSA"
-85.136952,38.522085,Cut Flower Grower,Front Yard Farms,frontyardfarmky@gmail.com,4123 Port Royal Rd,Turners Station,KY,40075,,https://www.facebook.com/frontyardfarmky/,./icons/fb-icon.png,https://www.instagram.com/frontyardfarm_ky/,./icons/instagram-icon.png,Farmer's market
-85.080521,38.127209,Cut Flower Grower,Bellaire Blooms,bellairebloomsky@gmail.com,3810 Waddy Rd,Waddy,KY,40076,https://www.bellairebloomsky.com/,https://www.facebook.com/700bellaireave,./icons/fb-icon.png,https://www.instagram.com/bellaireblooms/,./icons/instagram-icon.png,"Farmer's Markets, Wholesale to florists"
-84.9698934,37.5453332,Cut Flower Grower,Shooting Star Flowers,shootingstarflowers@gmail.com,355 Gorley Rd,Gravel Switch,KY,40328,,https://www.facebook.com/shootingstarflowerfarm/,./icons/fb-icon.png,https://www.instagram.com/shootingstarflowers/,./icons/instagram-icon.png,"Farmer's Market, Wholesale to florists, Farm Stands"
-84.8971757,38.3265232,Cut Flower Grower,Wild Fern Farm,wildfernfarm@gmail.com,6945 Flat Creek Road,Frankfort,KY,40601,,https://www.facebook.com/wildfernfarmky,./icons/fb-icon.png,https://www.instagram.com/wildfernfarm/,,"Farm stands, Pop-up sales, On-site U-pick events, Custom orders"
-84.878777,38.19507,Cut Flower Grower,Hither Blooms,hitherblooms@gmail.com,,Frankfort,KY,,https://hither-blooms.square.site/,https://www.facebook.com/HitherBlooms,./icons/fb-icon.png,https://www.instagram.com/hitherblooms/,./icons/instagram-icon.png,"Farmer's market, Wholesale to florists, subscription bouquets, custom orders"
-84.8481571,37.8004027,Cut Flower Grower,Wild Roots,wildrootsfarmerflorist@gmail.com,1445 Mundys Landing Rd.,Harrodsburg,KY,40330,http://wildrootsfarmerflorist.com/,https://www.facebook.com/wildrootsfarmerflorist/,./icons/fb-icon.png,https://www.instagram.com/wildrootsfarmerflorist/,./icons/instagram-icon.png,"Farm Stands, Wholesale to florists, Wedding Design, CSA"
-84.83534,38.10424,Cut Flower Grower,Beholden Blooms,Nicole@beholdenblooms.com,1011 Sunny View Ln,Frankfort,KY,40601,https://www.beholdenblooms.com,https://www.facebook.com/BeholdenBlooms,./icons/fb-icon.png,https://www.instagram.com/beholdenblooms/,./icons/instagram-icon.png,"Farmer's Market, Wedding design"
-84.8243965,37.8658822,Cut Flower Grower,Robertson Farm,emilyrrobertson15@gmail.com,1198 Harvey Pike,Harrodsburg,KY,,https://www.robertsonfarmky.com/,https://www.facebook.com/robertsonfamilyfarmkentucky,./icons/fb-icon.png,https://www.instagram.com/robertsonfarmky/,./icons/instagram-icon.png,"Farm stands, Subscription bouquets, Flower bar at local businesses"
-84.787504,38.1633612,Cut Flower Grower,Highland Moor,info@highlandmoor.com,226 Shady Ln,Midway,KY,40347,http://highlandmoor.com/,https://www.facebook.com/HighlandMoor/,./icons/fb-icon.png,,,"Farmer's Market, Wholesale to florists, Specialty stores"
-84.764662,38.642992,Cut Flower Grower,Royson Ridge Farm,RoysonRidge@gmail.com,14065 Jonesville Rd,Dry Ridge,KY,41035,,,,,,"Farmer's Market, Wholesale to Florists, Farm Stands, Delivery"
-84.739349,37.946761,Cut Flower Grower,Heart and Horizon/Mixed Borders Garden Design,mixedbordersky@gmail.com,100 Fords Mill Rd,Versailles,KY,40383,,https://www.facebook.com/Heart-and-Horizon-Farm-478388398981275/,./icons/fb-icon.png,,,"Farmer's Market, Wholesale to florists"
-84.6859716,38.2692388,Cut Flower Grower,Annie's Flowers,anniesfreshflowers@gmail.com,115 Wright St,Stamping Ground,KY,40379,https://www.anniesfreshflowers.com,https://www.facebook.com/freshflowersonthetable/,./icons/fb-icon.png,https://www.instagram.com/anniesflowers/,./icons/instagram-icon.png,"Wholesale to florists, Wedding Design, Farm Stands, Delivery to Lexington and Georgetown"
-84.66204,38.198808,Cut Flower Grower,Gray Arbor Farm,kelly.grayarbor@gmail.com,388 Soards Rd,Georgetown,KY,40324,https://grayarborfarm.com,https://www.facebook.com/grayarborfarm,./icons/fb-icon.png,https://www.instagram.com/grayarborfarm/,./icons/instagram-icon.png,"Farmer's Market, Wholesale to Florists, Wedding Design, Bouquet and Farm Club CSA, U-Pick, Business Subscriptions, Delivery/Pick Up Arrangements"
-84.6580272,38.2068107,Cut Flower Grower,In Bloom Flower Farm,carly@inbloomcutflowers.com,160 Soards Rd,Georgetown,KY,40324,https://inbloomcutflowers.com/,https://www.facebook.com/inbloomflowerfarm/,./icons/fb-icon.png,https://www.instagram.com/inbloomflowerfarm/,./icons/instagram-icon.png,"Farmer's Market, Wedding Design"
-84.518577,37.922394,Cut Flower Grower,Agape Fields,julie@agapefields.com,1422 Beaumont Rd,Nicholasville,KY,40356,https://www.agapefields.com/,https://www.facebook.com/AgapeFieldsFlowers/,./icons/fb-icon.png,https://www.instagram.com/agapefields/,./icons/instagram-icon.png,"Wholesale to florists, Wedding Design, Delivery and CSA, You Pick, Workshops"
-84.5037164,38.0405837,Cut Flower Grower,Greenhouse 17,smcguire@greenhouse17.org,4400 Briar Hill Rd,Lexington,KY,40516,https://www.greenhouse17.org,https://www.facebook.com/GreenHouse17/,./icons/fb-icon.png,https://www.instagram.com/greenhouse17ky/,./icons/instagram-icon.png,"Farmer's Market, Farm Stands, CSA"
-84.46736,38.95361,Cut Flower Grower,BlackBerry Ridge Flower Farm,blackberryridgeflowerfarm@gmail.com,,Ryland Heights,KY,,https://www.blackberryridgeflowerfarm.com/,https://www.facebook.com/Blackberry-Ridge-Flower-Farm-116678656833674,./icons/fb-icon.png,https://www.instagram.com/blackberryridgeflowerfarm/?hl=en,./icons/instagram-icon.png,"Farmer's market (with Anna Raines at Rains & Sun Hilltop Farm), Bouquet subscription"
-84.40866,38.87995,Cut Flower Grower,Broken Oaks Farm,brokenoaksflowerfarm@gmail.com,11900 Lees Road,Alexandria,KY,41001,www.brokenoaksfarm.com,https://www.facebook.com/brokenoaksfarm/,./icons/fb-icon.png,https://www.instagram.com/brokenoaksfarm,./icons/instagram-icon.png,"Farmer's market, Wholesale to florists, On-farm pickup (by request)"
-84.402209,38.462038,Cut Flower Grower,Flora Berry Farm,vdrudnicki@gmail.com,498 Crows Ridge Rd,Berry,KY,41003,https://www.floraberryfarm.com,https://www.facebook.com/floraberryfarm/,./icons/fb-icon.png,https://www.instagram.com/floraberryfarm/,./icons/instagram-icon.png,"Farmer's Market, Wholesale to florists, Wedding Design, Subscription service"
-84.2818035,38.5116166,Cut Flower Grower,Brownings,browningsflowertruck@gmail.com,694 Blackburn Rd.,Cynthiana,KY,41031,https://www.browningsflowertruck.com/about,https://www.facebook.com/browningsflowertruck/,./icons/fb-icon.png,https://www.instagram.com/browningsflowertruck/,./icons/instagram-icon.png,"Wedding Design, Flower truck"
-84.2778876,37.9647778,Cut Flower Grower,Three Toads Farm,vschirmer3@gmail.com,3808 Combs Ferry Rd,Winchester,KY,40391,https://www.threetoadsfarm.com/,https://www.facebook.com/ThreeToadsFarm/,./icons/fb-icon.png,https://www.instagram.com/threetoadsfarm/,./icons/instagram-icon.png,"Wholesale to Florists, Wedding Design, On-Farm Workshops & Pop-Ups"
-84.1834639,38.0135048,Cut Flower Grower,Bluegrass Blooms & Botanicals,bluegrassblooms@gmail.com,671 Tech Dr.,Winchester,KY,40391,https://www.Bluegrassblooms.com,https://www.facebook.com/BluegrassBlooms/,./icons/fb-icon.png,https://www.instagram.com/bluegrassblooms/,./icons/instagram-icon.png,"Wholesale to florists, Wedding Design, Bouquet Subscription, Pop up Flower Bar, Grocery Stores"
-84.1567282,38.1524016,Cut Flower Grower,Blooms of Bourbon Co,cindykflowers@gmail.com,393 Thomas Rd,Paris,KY,40361,https://bloomsofbc.com/,https://www.facebook.com/bbcfreshcutflowers/,./icons/fb-icon.png,https://www.instagram.com/bloomsofbourboncounty/,./icons/instagram-icon.png,Farmer's Market
-84.1283335,37.1426834,Cut Flower Grower,Isabelle Blooms,info@isabelleblooms.com,662 Ridings-Mitchell Creek Road,London,KY,40741,https://www.isabelleblooms.com,https://www.facebook.com/isabelleblooms/,,https://www.instagram.com/isabelleblooms/,./icons/instagram-icon.png,"Wholesale to Florists, Wedding Design, Direct to Consumer/Custom Orders"
-84.031944,38.315833,Cut Flower Grower,Sweet Stems Flower Farm,ericarbrierly@rocketmail.com,2221 Maysville Rd.,Carlisle,KY,40311,,https://www.facebook.com/Sweet-Stems-Cut-Flower-Farm-101248232230416,./icons/fb-icon.png,,,"Wholesale to Florists, Farm Stands"
-83.93249,38.38925,Cut Flower Grower,Blooming Valley Flower Farm,bloomingvalleyflowerfarm@gmail.com,607 Briggs Lane,Ewing,KY,41039,,https://www.facebook.com/Bloomingvalleyflowerfarm,./icons/fb-icon.png,https://www.instagram.com/bloomingvalleyflowerfarm/,./icons/instagram-icon.png,"Farmer's Market, Wholesale to florists, Wedding Design, Weekly Buckets"
-83.65134,37.270018,Cut Flower Grower,Old Homeplace Farm,maggie@oldhomeplacefarm.com,156 Laurel Branch Rd.,Manchester,KY,40962,https://www.oldhomeplacefarm.com/ ,https://www.facebook.com/OldHomeplaceFarm ,./icons/fb-icon.png,https://www.instagram.com/oldhomeplacefarm/,./icons/instagram-icon.png,"Online Store, CSA"
-83.2453489,36.9014725,Cut Flower Grower,Hartlove Farms,hartlovefarms@gmail.com,3029 Hwy 522 ,Baxter,KY,40806,https://hartlovefarms.wordpress.com/,https://www.facebook.com/HartloveFarms/,./icons/fb-icon.png,https://www.instagram.com/hartlovefarms/,./icons/instagram-icon.png,"Farmer's Market, Wholesale to florists, Wedding Design, On-the-farm workshops "
-82.8329656,38.5279415,Cut Flower Grower,Mountain Girl Provisions,mtnmomma61@hotmail.com,578 Cedar Riffle Rd,Greenup,KY,41144,,https://www.facebook.com/mtngirlprovision/,./icons/fb-icon.png,,,"Farmer's Market, text, facebook, home delivery"
-82.640332,38.461293,Cut Flower Grower,Wild Paint Cut Flowers,Karenhogsten@gmail.com,2828 Hackworth St.,Ashland,KY,41101,https://wildpaintcutflowers.com/,https://www.facebook.com/Wild-Paint-Cut-Flowers-167881017225754/,./icons/fb-icon.png,https://www.instagram.com/wild_paint_cut_flowers/,./icons/instagram-icon.png,"Farmer's Market, Wholesale to florists"
-85.5246107,38.1927241,Cut Flower Grower,Ardesco Farms,ardescofarms@gmail.com,3200 Tucker Station Rd.,Louisville,KY,40299,https://www.ardescofarms.com,https://www.facebook.com/ardescofarms/,./icons/fb-icon.png,https://www.instagram.com/ardescofarms/,./icons/instagram-icon.png,"Farmer's Market, Wholesale to Florists, Subscriptions, Bouquets to Order"
-85.0756576,38.2801134,Cut Flower Grower,Bagdad Blooms,suesd57@yahoo.com,2810 Christianburg Rd.,Bagdad,KY,40003,,https://www.facebook.com/bagdadblooms,./icons/fb-icon.png,,,Farmer's Market
-85.3637323,37.2828816,Cut Flower Grower,Beehind Thyme Farm & Garden,beehindthyme@gmail.com,353 Lone Valley Rd.,Campbellsville,KY,42718,https://beehindthymefarmgarden.com,https://www.facebook.com/beehindthymefarmgarden/,./icons/fb-icon.png,https://www.instagram.com/beehindthymefarmgarden,./icons/instagram-icon.png,"Wedding Design, Farm Stands, Brick and Mortar Shop"
-85.2209536,37.9647621,Cut Flower Grower,Bountiful Blooms,bountifulbloomsky@gmail.com,137 Drake Ridge Rd.,Bloomfield,KY,40008,https://bountifulblooms.farm/,https://www.facebook.com/profile.php?id=100075396487816,./icons/fb-icon.png,,,"Wholesale to Florists, Farm Stands, Business Stands"
-87.570429,37.2399066,Cut Flower Grower,Boxcroft Garden & Designs,boxcroftgardens@yahoo.com,885 Copper Creek Rd.,Dawson Springs,KY,42408,https://www.boxcroftgardens.com,http://www.facebook.com/boxcroftgardens/,./icons/fb-icon.png,http://www.instagram.com/boxcroftgardens/,./icons/instagram-icon.png,"Farmer's Market, Farm Stands"
-84.8490762,36.8297784,Cut Flower Grower,Conley Bottom Sunflower Farm,emily.conley@kctcs.edu,6281 Highway 1275 N,Monticello,KY,42633,,,,,,"Farmer's Market, Wholesale to Florists"
-84.6541654,37.7463942,Cut Flower Grower,Daycrest Farm,bisher70@icloud.com,1449 Kennedy Bridge Rd.,Lancaster,KY,40444,https://www.daycrestfarm.com,https://www.facebook.com/daycrestfarm,./icons/fb-icon.png,https://instagram.com/daycrestfarm/,./icons/instagram-icon.png,"Farm Stands, Workshops, U-Pick"
-85.2369779,37.7201427,Cut Flower Grower,Faith Lane Flowers,pattisue1111@gmail.com,200 Faith Lane,Springfield,KY,40069,,https://www.facebook.com/faithlanefarm/,./icons/fb-icon.png,https://www.instagram.com/faithlaneflowers/,./icons/instagram-icon.png,"Wholesale to Florists, Wedding Design, Subscriptions"
-84.9466124,38.1490958,Cut Flower Grower,Firmly Rooted Flowers,firmlyrootedflowers@gmail.com,650 Evergreen Rd.,Frankfort,KY,40601,https://www.firmlyrootedflowersky.com,https://www.facebook.com/firmlyrootedflowers/,./icons/fb-icon.png,https://www.instagram.com/firmlyrootedflowers/,./icons/instagram-icon.png,"Farmer's Market, Wholesale to Florists, Farm Stands, U-pick, Pop-up Shops"
-85.7851308,37.5648512,Cut Flower Grower,Grandview Farm,grandviewfarmky@gmail.com,310 Dorsey Lane,Hodgenville,KY,42748,https://www.grandviewfarmky.com,https://www.facebook.com/grandviewfarmky,./icons/fb-icon.png,http://www.instagram.com/grandviewfarmky/,./icons/instagram-icon.png,"Farmer's Market, Wholesale to florists, online sales"
-84.1734549,38.2413618,Cut Flower Grower,Hatmaker Homestead,hatmakerhomestead@gmail.com,555 Tarr Rd.,Paris,KY,40361,https://www.hatmakerhomestead.com,https://www.facebook.com/hatmakerhomestead/,./icons/fb-icon.png,https://www.instagram.com/hatmaker_homestead,./icons/instagram-icon.png,"Farmer's Market, CSA Flower Subscription, CSA Add-On"
-84.9632581,38.6353923,Cut Flower Grower,Hazelfield Farm,Hazelfieldfarm@hotmail.com,1585 Butler Inn Rd. ,Worthville,KY,41098,https://www.hazelfieldfarm.com,https://www.facebook.com/hazelfieldfarm,./icons/fb-icon.png,https://www.instagram.com/hazelfieldfarm/,./icons/instagram-icon.png,"Farmer's Market, Wedding Design"
-84.6489149,37.8759909,Cut Flower Grower,Joy to the World Family Farm,arv.judy@gmail.com,20 Veterans Drive,Wilmore,KY,40390,,https://www.facebook.com/joytotheworldfarm/,./icons/fb-icon.png,,,U-pick
-85.7975355,37.45981,Cut Flower Grower,Lavender & Leafery,bryant.emilyc@gmail.com,149 Robinson Ln.,Sonora,KY,42776,,https://www.facebook.com/lavenderandleafery/,./icons/fb-icon.png,https://www.instagram.com/lavenderandleafery/,./icons/instagram-icon.png,"Farmer's Market, Wholesale to Florists, Subscription"
-83.7209656,38.6143114,Cut Flower Grower,Maysville Seed & Stem,maysvillebloom@gmail.com,8030 Cobb Ln.,Maysville,KY,41056,,https://www.facebook.com/maysvilleblooms,./icons/fb-icon.png,https://www.instagram.com/maysvilleblooms,./icons/instagram-icon.png,Farmer's Market
-84.3630195,37.4654218,Cut Flower Grower,Parsons Pastures,parsonspastures@gmail.com,550 Rogers Rd.,Mt. Vernon,KY,40456,https://parsonspastures.godaddysites.com/,https://www.facebook.com/ParsonsPastures/,./icons/fb-icon.png,,,"Farmer's Market, Farm Stands"
-83.0491637,37.9710796,Cut Flower Grower,Paint Creek Farms,paintcreekfarms@gmail.com,132 Ison Dr.,West Liberty,KY,41472,,https://www.facebook.com/paintcreekfarms/,./icons/fb-icon.png,https://www.instagram.com/paintcreekfarms/,./icons/instagram-icon.png,"Farmer's Market, Wholesale to Florists, Wedding Design, Farm Stands"
-85.7778471,37.1392617,Cut Flower Grower,Petal Seekers Flower Farm,petalseekers@gmail.com,50 Seymour Park Rd.,Horse Cave,KY,42649,,https://www.facebook.com/Petal-Seekers-Flower-Farm-117382324292834,./icons/fb-icon.png,,,"Farmer's Market, Wholesale to Florists, Wedding Design"
-83.0474491,38.262449,Cut Flower Grower,Riggs Family Flower Farm,mzriggs@yahoo.com,969 Rattlesnake Fork,Olive Hill,KY,41164,,https://www.facebook.com/Riggs-Family-Farm-104938868888872,./icons/fb-icon.png,,,"Farmer's Market, Wholesale to Florists, Farm Stand, U-Pick"
-86.6372653,37.2726442,Cut Flower Grower,Rooted Flower Farm,rootedflowerfarm.ky@gmail.com,11 Hunts Lake Rd. ,Morgantown,KY,42261,https://rooted-flower-farm.square.site/,https://www.facebook.com/rootedflowers,./icons/fb-icon.png,https://www.instagram.com/rootedflowerfarm.ky/,./icons/instagram-icon.png,"Farmer's Market, Delivery"
-84.6711431,38.879945,Cut Flower Grower,Rutz Flower Field,rlmutz77@gmail.com,1384 Beaver Rd.,Walton,KY,41094,https://www.rutzflowers.com,https://www.facebook.com/rutzflowers,./icons/fb-icon.png,https://www.instagram.com/rutzflowers,./icons/instagram-icon.png,"Farmer's Market, Wholesale to Florists, Farm Stands"
-84.8539667,37.0496277,Cut Flower Grower,Sharp Flower Company,sharpflowerfarm@gmail.com,1195 Pleasant Point Rd.,Nancy,KY,42544,,https://www.facebook.com/sharpflowerco/,./icons/fb-icon.png,https://www.instagram.com/sharpflowerco,./icons/instagram-icon.png,Flower Truck
-83.5954898,38.2420669,Cut Flower Grower,Sweet Pease Berries and Bouquets,laneybpease@gmail.com,121 Flag Branch Rd.,Hillsboro,KY,41049,,https://www.facebook.com/Sweet-Pease-Berries-Bouquets-108160800937742,./icons/fb-icon.png,,https://www.instagram.com/sweetpeaseberriesandbouquets/,"Farmer's Market, Wedding Design, Farm Stands"
-88.5140938,36.6669895,Cut Flower Grower,Three Little Ladies Farm,sarah_lester07@hotmail.com,13428 St Rt 564 South,Farmington,KY,42040,,https://www.facebook.com/3littleladiesfarm/,./icons/fb-icon.png,,,"Wholesale to Florists, Farm Stand"
-84.2383807,38.4603548,Cut Flower Grower,Three Pines Farm,threepinesfarm@mail.com,6085 US Hwy. 62E,Cynthiana,KY,41031,,https://www.facebook.com/Three-Pines-Farm-106482851949497,./icons/fb-icon.png,https://www.instagram.com/threepines859,./icons/instagram-icon.png,"Farmer's Market, Farm Stands, Direct Orders"
-88.6192532,37.0809689,Cut Flower Grower,Tulip Lane,natalie@tuliplaneflowers.com,303 Fountain Avenue,Paducah,KY,42001,https://www.tuliplaneflowers.com,https://www.facebook.com/tuliplaneflowerfarm/,./icons/fb-icon.png,https://www.instagram.com/tuliplaneflowerfarm/,./icons/instagram-icon.png,"Wholesale to Florists, Farm Stand, Pop-Ups, & Grocery Stores"
-85.4203244,38.3326166,Cut Flower Grower,Uproot Blooms,uprootblooms@gmail.com,6300 Oaklea Dr.,Crestwood,KY,40014,https://www.uprootblooms.com,https://www.facebook.com/uprootblooms,./icons/fb-icon.png,https://www.instagram.com/uproot.blooms/,./icons/instagram-icon.png,"Farmer's Market, Wholesale to Florists, Farm Stands, Subscriptions, Direct Sales"
-84.85395597,37.04985031,Cut Flower Grower,Sharp Flower Company,sharpflowerfarm@gmail.com,1195 Pleasant Point Rd.,Nancy,KY,42544,,https://www.facebook.com/sharpflowerco,./icons/fb-icon.png,https://www.instagram.com/sharpflowerco,./icons/instagram-icon.png,Flower Truck
-82.86278752,38.37481987,Cut Flower Grower,Valley of Hope Farms,milissia_leicht@yahoo.com,866 Joe Branch,Grayson,KY,41143,https://valleyofhopefarms.com,https://www.facebook.com/Valley-of-Hope-Farms-104354414719398,./icons/fb-icon.png,,,"Farmer's Market, Farm Stands"
-86.5786537,36.68076821,Cut Flower Grower,Ruby Branch Farms,rubybranchfarms@gmail.com,780 Lake Spring Rd.,Franklin,KY,42134,https://www.rubybranchfarms.com/,https://www.facebook.com/rubybranchfarms,./icons/fb-icon.png,https://www.instagram.com/rubybranchfarms/,./icons/instagram-icon.png,Farm Stands
-83.9420287,38.68756167,Cut Flower Grower,Borrowed Acres Flower Farm,pamelacarpenter2012@gmail.com,3208 Walton Pike,Dover,KY,41034,,https://www.facebook.com/profile.php?id=100090735065677&mibextid=LQQJ4d,./icons/fb-icon.png,,,"Wholesale to Florists, Farm Stands, DIY Buckets, Bouquets"
-87.4844255,37.68718991,Cut Flower Grower,Hickerson Veggies & Flowers,hickerson17@gmail.com,5588 S Pleasant Valley Rd.,Robards,KY,42452,,,,https://www.instagram.com/hickersonveggies/,./icons/instagram-icon.png,Wholesale to Florists
-84.3862257,39.02758885,Cut Flower Grower,Vogel Farm,donnaherrmannvogel@gmail.com,5380 Four Mile Rd.,Melbourne,KY,41059,,https://www.facebook.com/thevogelfarm,./icons/fb-icon.png,,,Farm Stands
-83.8357265,38.435318,Cut Flower Grower,Loving Farm,lovingfarm134@gmail.com,134 Florence Ln.,Ewing,KY,41039,https://www.loving-farm.com,,,https://www.instagram.com/loving_farm,./icons/instagram-icon.png,"Farmer's Market, Farm Stands"
-83.25451298,37.84194447,Cut Flower Grower,The Flower Lady,bloomsbyb19@gmail.com,5287 Highway 191,West Liberty,KY,41472,https://theflowerladyky.squarespace.com,https://www.facebook.com/theflowerladyky,./icons/fb-icon.png,https://www.instagram.com/theflowerlady_ky,./icons/instagram-icon.png,U-Pick
-84.6316132,37.2665256,Cut Flower Grower,5W Farms,5wheeldonfarm@gmail.com,770 Old Cuba Rd.,Eubank,KY,42567,http://www.5wfarms.com,https://www.facebook.com/profile.php?id=100078847548052,./icons/fb-icon.png,https://www.instagram.com/5w__farms/,./icons/instagram-icon.png,"Farmer's Market, Farm Stands, U-pick, Subscriptions, Currently selling on social media but will incorporate all the checked above new this season"
-84.5871839,37.234225,Cut Flower Grower,Angel Creek Farm,angelcreekfarmsoaps@gmail.com,545 Estill Hackney Road,Eubank,KY,42567,,https://www.facebook.com/angelcreekfarmky,./icons/fb-icon.png,https://www.instagram.com/angelcreekfarm/,./icons/instagram-icon.png,"Farmer's Market, Farm Stands"
-84.2635386,37.7511239,Cut Flower Grower,"Beautifully Sown, LLC.",beautifullysown@gmail.com,125 Wesley Court,Richmond,KY,40475,,https://www.facebook.com/profile.php?id=100088231594615,./icons/fb-icon.png,https://www.instagram.com/beautifullysown/,./icons/instagram-icon.png,"Wholesale to florists, Subscriptions, bouquets sold at a local business, buckets of flowers for DIYers, bouquet arranging workshops"
-85.3356363,38.4825483,Cut Flower Grower,Calamity Blooms,calamityblooms@gmail.com,7301 organ creek rd,Pendleton,KY,40055,https://www.calamityblooms.com/,https://www.facebook.com/calamityblooms,./icons/fb-icon.png,https://www.instagram.com/calamityblooms/,./icons/instagram-icon.png,"Wholesale to florists, U-pick, Subscriptions, Retail"
-84.638014,37.345839,Cut Flower Grower,Clara Roselle Flower and Herb Garden,clararoselles@yahoo.com,1600 Cemetery Road,Waynesburg,KY,40489,,https://www.facebook.com/profile.php?id=100086391477331,./icons/fb-icon.png,https://www.instagram.com/clararoselles_flowerandherb/,./icons/instagram-icon.png,"Farmer's Market, Wholesale to florists, Farm Stands, Subscriptions"
-87.9031756,37.6898729,Cut Flower Grower,Danhauer Greenhouse and Garden Center,danhauergc@bellsouth.net,818 US Hwy 60 East,Morganfield,KY,42437,http://www.danhauerflowers.com,https://www.facebook.com/profile.php?id=100063501495492,./icons/fb-icon.png,,,"Wholesale to florists, Retail Florist"
-85.4384641,38.2517703,Cut Flower Grower,Flat Rock Flowers,flatrockflowers@gmail.com,1014 Flat Rock Rd,Lousiville,KY,40245,https://www.flatrockflowersky.com,https://www.facebook.com/flatrockflowers,./icons/fb-icon.png,https://www.instagram.com/flatrockflowers/,./icons/instagram-icon.png,"Wholesale to florists, Subscriptions, Social Media"
-86.530305,36.876648,Cut Flower Grower,Flowerz,rfflours@gmail.com,9725 Nashville Rd,Bowling Green,KY,42101,,https://www.facebook.com/rfflours,./icons/fb-icon.png,,,"Farmer's Market, Wedding Design"
-85.2489805,38.2008687,Cut Flower Grower,Gardens Unwound,gardens.unwound@gmail.com,214 Victoria Drive,Shelbyville,KY,40065,http://www.gardensunwound.com,https://www.facebook.com/profile.php?id=100082123620930,./icons/fb-icon.png,https://www.instagram.com/gardens_unwound/,./icons/instagram-icon.png,"Wholesale to florists, Subscriptions"
-84.8350229,38.1968703,Cut Flower Grower,Homegrown Happiness,info@homegrownhappiness.net,167 Lyons Drive,Frankfort,KY,40601,http://homegrownhappiness.net,https://www.facebook.com/HomegrownHappinessKY,./icons/fb-icon.png,https://www.instagram.com/homegrownhappinessky/,./icons/instagram-icon.png,"Farmer's Market, Wholesale to florists"
-85.753788,37.446495,Cut Flower Grower,Magnolia Greenery Flower Farm,keeahnabowen14@gmail.com,425 Thomas Ln,Magnolia,KY,42757,,https://www.facebook.com/profile.php?id=100086795112541,./icons/fb-icon.png,https://www.instagram.com/magnolia.greenery/,./icons/instagram-icon.png,"Farmer's Market, Farm Stands, U-pick, This is my first year and I would love to eventually sell to florists!"
-85.6026255,37.2301126,Cut Flower Grower,Pine Knot Flower Farm,pineknotflowerfarm@gmail.com,962 Grab Road,Greensburg,KY,42743,,https://www.facebook.com/pineknotflowerfarm,./icons/fb-icon.png,https://www.instagram.com/pineknotflowerfarm/,./icons/instagram-icon.png,"Farmer's Market, Wholesale to florists, Wedding Design, Custom Orders"
-88.2844084,37.1365303,Cut Flower Grower,"Sugar Creek Flower Farm, LLC",jtbigbuck@hotmail.com,845 Sugar Creek Rd,Grand Rivers,KY,42045,,https://www.facebook.com/sugarcreekflowerfarm,./icons/fb-icon.png,https://www.instagram.com/sugarcreek_flowerfarm/,./icons/instagram-icon.png,U-pick
-85.461932,38.4039114,Cut Flower Grower,Tangled Roots Farm,tangledrootsfarms@gmail.com,1114 Cedar Point Rd,Crestwood,KY,40031,http://www.tangledrootsfarms.com,https://www.facebook.com/TangledRootsFarm?ref=bookmarks,./icons/fb-icon.png,https://www.instagram.com/tangledrootsfarmstand/,./icons/instagram-icon.png,"Farmer's Market, Wholesale to florists, Wedding Design, Subscriptions"
-88.3508434,36.7642199,Cut Flower Grower,The Cabin Porch Farm and Flowers,thecabinporchbrewers@gmail.com,2839 Brewers Hwy,Benton,KY,42437,https://thecabinporch.square.site/,https://www.facebook.com/thecabinporch,./icons/fb-icon.png,https://www.instagram.com/thecabinporchfarm/,./icons/instagram-icon.png,"Farmer's Market, U-pick, Subscriptions"
-88.487333,36.509368,Cut Flower Grower,Tutz's Flower Patch,edgehill2@hotmail.com,3753 Edgehill Trail,Hazel,KY,42049,,https://www.facebook.com/tutzflowerpatch/,./icons/fb-icon.png,,,"Wholesale to florists, U-pick"
-83.983943,38.650682,Cut Flower Grower,Borrowed Acres Flower Farm,pamelacarpenter2012@gmail.com,5630 Brooksville Germantown Rd,Germantown,KY,41044,,https://www.facebook.com/profile.php?id=100090735065677&mibextid=LQQJ4d,./icons/fb-icon.png,,,"Wholesale to Florists, Farm Stands, DIY Buckets, Bouquets"
-84.8227255,38.7145093,Cut Flower Grower,Blossom and Harvest,blossomandharvest@gmail.com,12215 Hwy 127 N,Glencoe,KY,41046,,https://www.facebook.com/profile.php?id=100093045962483,./icons/fb-icon.png,https://www.instagram.com/blossomandharvest/,./icons/instagram-icon.png,"Farmer's Market, Wholesale to florists"
-88.115393,36.518611,Cut Flower Grower,Zenn~La Acres,DinoCompUSA@gmail.com,13600 STATE ROUTE 121 S,New Concord,KY,42076,,https://www.facebook.com/ZennLaAcres,./icons/fb-icon.png,,,"Farmer's Market, Farm Stands, U-pick, Photo Ops, Tours, Training, Laser Engraving, Food Truck, Cottage Rental"
-84.7263933,39.0609782,Cut Flower Grower,Moore's Farm/Roena's Flowers,roena@fuse.net,4070 Bullittsville Road,Burlington,KY,41005,,https://www.facebook.com/roena.moore,./icons/fb-icon.png,,,"Farmer's Market, Wholesale to florists, Custom Orders"
-85.1648068,37.0143649,Cut Flower Grower,Oliver and Jayne,oliverandjayne@gmail.com,266 Delk Road,Russel Springs,KY,42642,https://oliverandjayne.com,https://www.facebook.com/oliverandjayne,./icons/fb-icon.png,https://www.instagram.com/oliver_and_jayne/,./icons/instagram-icon.png,"subscriptions, deliveries, weddings, and pop-ups"
-84.5372659,38.03973375,Cut Flower Grower,Sav's Garden,savsgardenky@gmail.com,,Lexington,KY,40504,https://www.savsgarden.com/,https://www.facebook.com/profile.php?id=100090064673291,./icons/fb-icon.png,https://www.instagram.com/s.avsgarden/,./icons/instagram-icon.png,"Farmer's market, Wholesale, CSA"
-86.18521152,37.29306135,Cut Flower Grower,Brier Valley Farms,katie.smith72614@gmail.com,1477 Brier Creek Rd ,Mammoth Cave,KY,42259,,https://www.facebook.com/profile.php?id=100092546419238&locale=ms_MY,./icons/fb-icon.png,https://www.instagram.com/brier_valley_farms_/,./icons/instagram-icon.png,"Farm Stands, U-pick"
-85.28661337,38.11642387,Cut Flower Grower,Chickapoo Farm Country Escapes & Pick Your Own Gardens,info@chickapoofarm.com,1167 Haley Road,Shelbyville,KY,40065,www.chickapoofarm.com,https://www.facebook.com/ChickapooFarm,./icons/fb-icon.png,https://www.instagram.com/chickapoofarm/,./icons/instagram-icon.png,"Wholesale to florists, Seasonal Bouquets, DIY Flower Buckets, Farm Stand, U-pick, Subscriptions, Farm Shop"
-84.74350992,37.46823224,Cut Flower Grower,Thistle Hill Blooms,thistlehillblooms@gmail.com,1566 KY Highway 198,Stanford,KY,40484,,https://www.facebook.com/profile.php?id=100089342967681&mibextid=9R9pXO,./icons/fb-icon.png,,,"Farmers market, delivery, custom orders"
-86.57036723,37.0046615,Cut Flower Grower,Seeds Flower Truck and Flower Farm,seedsflowertruck@outlook.com,2240 Hammett Hill Rd,Bowling Green,KY,42101,https://www.seedsflowertruck.org,https://www.facebook.com/seedsflowertruck/,./icons/fb-icon.png,https://www.instagram.com/seedsflowertruck/,./icons/instagram-icon.png,"Flower Truck pop-ups, weddings, U-pick, workshops"
-85.13041009,37.80859756,Cut Flower Grower,BourBlooms,Haleychildress5@gmail.com,2141 Main Street,Willisburg ,KY,40078,,,,https://instagram.com/bourblooms?igshid=OGQ5ZDc2ODk2ZA==,./icons/instagram-icon.png,"farmers market, subscriptions and farm stand "
-84.58247669,37.63662348,Cut Flower Grower,AnnaScapes,kirbys50@icloud.com,1234 Lexington Road,Lancaster,Ky,40444,,https://www.facebook.com/people/AnnaScapes/100077714743125/?paipv=0&eav=Afaov9cwwHn2Md9d_9szDYuz8CIpt49UEgqUsSYBCb3CcdaM15DqkVYWDPvu8Fr5IWc&_rdr,./icons/fb-icon.png,,,Wholesale to Florist 
-85.87831604,37.6382638,Cut Flower Grower,Red Oak Flower Farm,redoakflowerfarm@gmail.com,3661 New Glendale Rd,Elizabethtown,KY,42701,,https://www.facebook.com/profile.php?id=100089901204337,./icons/fb-icon.png,https://www.instagram.com/redoakflowerfarm/,./icons/instagram-icon.png,"Wholesale to florists, subscription service, flower stand"
-82.99103069,38.64819123,Cut Flower Grower,Shae Farm,h7adk@yahoo.com,142 Sonny Lane,South Shore,KY,41175,,https://www.facebook.com/heather.h.adkins.9?mibextid=LQQJ4d ,./icons/fb-icon.png,https://instagram.com/heatheradkinsyoga?igshid=OGQ5ZDc2ODk2ZA==,./icons/instagram-icon.png,"U-Pick, Farmers Market, On-farm Events"
